City_ID,City,Lat,Lng,Max Temp,Humidity,Cloudiness,Wind Speed,Country,Date
0,atafu village,-8.5421,-172.5159,29.21,75,43,5.34,TK,2024-06-10
1,st. john's,47.5649,-52.7093,11.66,95,20,8.23,CA,2024-06-10
2,west island,-12.1568,96.8225,24.99,94,75,6.69,CC,2024-06-10
3,port-aux-francais,-49.35,70.2167,2.87,70,58,14.12,TF,2024-06-10
4,grytviken,-54.2811,-36.5092,-4.3,85,56,5.19,GS,2024-06-10
5,pisco,-13.7,-76.2167,14.03,88,20,2.06,PE,2024-06-10
6,lihue,21.9789,-159.3672,29.58,73,40,6.69,US,2024-06-10
7,san cristobal verapaz,15.3833,-90.4,18.2,93,100,0.48,GT,2024-06-10
8,waitangi,-43.9535,-176.5597,10.46,92,100,2.68,NZ,2024-06-10
9,luchow,52.9667,11.15,11.17,91,100,6.13,DE,2024-06-10
10,port alfred,-33.5906,26.891,16.57,44,16,4.78,ZA,2024-06-10
11,ancud,-41.8697,-73.8203,10.74,89,100,6.72,CL,2024-06-10
12,adamstown,-25.066,-130.1015,22.68,79,100,6.69,PN,2024-06-10
13,bethel,41.3712,-73.414,16.2,80,0,1.13,US,2024-06-10
14,khandyga,62.6667,135.6,22.53,29,45,0.81,RU,2024-06-10
15,saint-pierre,-21.3393,55.4781,22.32,71,12,5.26,RE,2024-06-10
16,papatowai,-46.5619,169.4708,6.51,74,76,4.71,NZ,2024-06-10
17,marsabit,2.3284,37.9899,17.31,74,42,7.94,KE,2024-06-10
18,la ronge,55.1001,-105.2842,11.14,93,100,1.54,CA,2024-06-10
19,albany,42.6001,-73.9662,14.3,80,97,0.45,US,2024-06-10
20,port lincoln,-34.7333,135.8667,17.81,56,40,9.8,AU,2024-06-10
21,margaret river,-33.95,115.0667,17.5,56,81,2.33,AU,2024-06-10
22,mandiana,10.6333,-8.6833,24.82,77,32,2.81,GN,2024-06-10
23,cam ranh,11.9214,109.1591,33.98,46,0,3.6,VN,2024-06-10
24,ushuaia,-54.8,-68.3,-5.19,93,0,1.54,AR,2024-06-10
25,keflavik,64.0049,-22.5624,6.95,87,100,3.09,IS,2024-06-10
26,mirnyy,62.5353,113.9611,24.57,27,43,0.89,RU,2024-06-10
27,okha,53.5739,142.9478,6.25,95,100,4.02,RU,2024-06-10
28,puerto natales,-51.7236,-72.4875,0.68,96,89,1.3,CL,2024-06-10
29,ghadamis,30.1337,9.5007,33.23,13,55,5.43,LY,2024-06-10
30,port elizabeth,-33.918,25.5701,12.95,77,0,3.09,ZA,2024-06-10
31,petropavlovsk-kamchatsky,53.0452,158.6483,13.33,86,0,8.0,RU,2024-06-10
32,vila do maio,15.1333,-23.2167,23.44,81,74,7.05,CV,2024-06-10
33,broken hill,-31.95,141.4333,20.49,26,76,10.69,AU,2024-06-10
34,iqaluit,63.7506,-68.5145,-0.15,80,100,1.03,CA,2024-06-10
35,sorong,-0.8833,131.25,25.45,89,100,1.59,ID,2024-06-10
36,lhokseumawe,5.1801,97.1507,32.11,58,98,3.1,ID,2024-06-10
37,aldan,58.6031,125.3894,20.63,34,34,4.38,RU,2024-06-10
38,college,64.8569,-147.8028,19.99,56,75,3.09,US,2024-06-10
39,warrenton,-28.114,24.8475,5.02,59,2,4.36,ZA,2024-06-10
40,port-vila,-17.7338,168.3219,27.78,78,100,4.63,VU,2024-06-10
41,invercargill,-46.4,168.35,6.12,84,90,2.24,NZ,2024-06-10
42,edinburgh of the seven seas,-37.0676,-12.3116,15.33,81,60,17.85,SH,2024-06-10
43,mata-utu,-13.2816,-176.1745,28.02,68,98,6.2,WF,2024-06-10
44,rosarito,32.3333,-117.0333,18.63,83,65,1.65,MX,2024-06-10
45,hermanus,-34.4187,19.2345,18.78,54,100,4.78,ZA,2024-06-10
46,thompson,55.7435,-97.8558,11.09,76,75,1.03,CA,2024-06-10
47,vilyuchinsk,52.9306,158.4028,14.15,83,100,2.74,RU,2024-06-10
48,wailua homesteads,22.0669,-159.378,29.24,79,40,6.69,US,2024-06-10
49,mejit,10.2753,170.8646,28.37,78,4,8.25,MH,2024-06-10
50,virginia,37.5481,-77.4467,21.08,72,100,3.6,US,2024-06-10
51,cannonvale,-20.2833,148.7,23.1,57,18,5.46,AU,2024-06-10
52,haiku-pauwela,20.9219,-156.3051,26.01,72,20,9.77,US,2024-06-10
53,uturoa,-16.7333,-151.4333,25.54,76,90,9.74,PF,2024-06-10
54,itoman,26.1247,127.6694,26.43,100,75,3.6,JP,2024-06-10
55,gaiman,-43.2897,-65.4929,12.42,60,88,9.6,AR,2024-06-10
56,yorkton,51.2167,-102.4677,12.91,94,100,4.63,CA,2024-06-10
57,fuerte olimpo,-21.0415,-57.8738,21.31,52,46,2.32,PY,2024-06-10
58,city of balikpapan,-1.242,116.8942,26.97,83,20,0.0,ID,2024-06-10
59,bilibino,68.0546,166.4372,14.86,37,97,0.51,RU,2024-06-10
60,la libertad,-2.2333,-80.9,20.52,84,83,2.97,EC,2024-06-10
61,tazacorte,28.629,-17.9293,20.54,85,75,5.66,ES,2024-06-10
62,laojunmiao,39.8333,97.7333,26.97,14,26,6.83,CN,2024-06-10
63,bumba,2.1833,22.4667,22.89,85,84,1.21,CD,2024-06-10
64,manado,1.487,124.8455,34.43,59,40,2.06,ID,2024-06-10
65,whitehorse,60.7161,-135.0538,15.01,42,100,4.63,CA,2024-06-10
66,zheshart,62.0731,49.5733,17.72,67,100,1.93,RU,2024-06-10
67,lobujya,27.95,86.8167,6.13,60,0,3.94,NP,2024-06-10
68,hami,42.8,93.45,35.29,10,20,4.2,CN,2024-06-10
69,akjoujt,19.6969,-14.4164,30.33,21,69,8.23,MR,2024-06-10
70,puerto ayora,-0.7393,-90.3518,21.97,98,50,2.55,EC,2024-06-10
71,vilyuysk,63.7553,121.6247,24.44,28,99,3.13,RU,2024-06-10
72,georgetown,5.4112,100.3354,33.96,62,20,2.57,MY,2024-06-10
73,holualoa,19.6228,-155.9522,25.91,77,75,3.6,US,2024-06-10
74,aioun,16.6614,-9.6149,33.61,27,35,4.74,MR,2024-06-10
75,freetown,8.484,-13.2299,25.84,89,75,4.12,SL,2024-06-10
76,pangkalpinang,-2.1333,106.1333,31.24,64,100,0.62,ID,2024-06-10
77,punta arenas,-53.15,-70.9167,2.06,93,100,1.54,CL,2024-06-10
78,port mathurin,-19.6833,63.4167,24.22,72,81,9.63,MU,2024-06-10
79,sao joao da barra,-21.6403,-41.0511,21.01,83,0,2.97,BR,2024-06-10
80,luganville,-15.5333,167.1667,27.24,80,49,1.7,VU,2024-06-10
81,hithadhoo,-0.6,73.0833,28.45,72,68,2.75,MV,2024-06-10
82,vila franca do campo,37.7167,-25.4333,18.27,99,72,2.01,PT,2024-06-10
83,baikonur,45.6167,63.3167,29.03,33,53,6.36,KZ,2024-06-10
84,tiksi,71.6872,128.8694,3.23,77,55,3.39,RU,2024-06-10
85,blackmans bay,-43.0167,147.3167,11.52,79,92,1.79,AU,2024-06-10
86,vorgashor,67.5833,63.95,2.11,77,26,2.97,RU,2024-06-10
87,tshikapa,-6.4167,20.8,17.21,48,2,1.53,CD,2024-06-10
88,longyearbyen,78.2186,15.6401,4.91,70,75,4.63,SJ,2024-06-10
89,hermiston,45.8404,-119.2895,25.01,42,0,2.06,US,2024-06-10
90,lebu,-37.6167,-73.65,12.81,95,98,8.56,CL,2024-06-10
91,zheleznogorsk-ilimskiy,56.5768,104.1217,18.28,53,92,2.2,RU,2024-06-10
92,belmonte,-15.8631,-38.8828,22.1,81,50,2.2,BR,2024-06-10
93,badger,64.8,-147.5333,19.95,50,75,3.09,US,2024-06-10
94,avarua,-21.2078,-159.775,22.03,56,75,3.09,CK,2024-06-10
95,gedo,9.0167,37.45,13.36,92,49,1.9,ET,2024-06-10
96,qaqortoq,60.7167,-46.0333,4.64,97,100,0.98,GL,2024-06-10
97,klyuchi,52.2667,79.1667,21.8,72,29,7.54,RU,2024-06-10
98,puerto san jose,13.9256,-90.8244,25.87,89,100,3.91,GT,2024-06-10
99,kangding,30.0513,101.9603,18.22,84,96,2.45,CN,2024-06-10
100,salinas,36.6777,-121.6555,15.56,90,100,5.66,US,2024-06-10
101,sitka,57.0531,-135.33,9.94,87,100,4.63,US,2024-06-10
102,fale old settlement,-9.3852,-171.2468,29.28,76,44,4.86,TK,2024-06-10
103,linxia chengguanzhen,35.6003,103.2064,25.2,21,55,1.35,CN,2024-06-10
104,nar'yan-mar,67.6713,53.087,7.28,77,100,5.36,RU,2024-06-10
105,battle ground,45.7809,-122.5334,20.45,77,8,0.89,US,2024-06-10
106,rongelap,11.1635,166.8941,28.49,77,75,8.52,MH,2024-06-10
107,hawaiian paradise park,19.5933,-154.9731,24.73,87,100,4.12,US,2024-06-10
108,ticul,20.4,-89.5333,24.42,98,66,1.06,MX,2024-06-10
109,dudinka,69.4058,86.1778,15.38,57,100,6.26,RU,2024-06-10
110,la'ie,21.6477,-157.9253,27.98,79,0,2.68,US,2024-06-10
111,lospalos,-8.5186,127.0025,25.89,67,66,4.83,TL,2024-06-10
112,tchintabaraden,15.8969,5.7985,30.53,55,4,7.55,NE,2024-06-10
113,estrela,-28.0611,-50.9383,14.13,97,1,1.32,BR,2024-06-10
114,jinchang,38.4953,102.1739,30.11,13,6,7.37,CN,2024-06-10
115,praia da vitoria,38.7333,-27.0667,17.64,82,40,1.66,PT,2024-06-10
116,jamestown,42.097,-79.2353,12.77,90,100,2.06,US,2024-06-10
117,santa ana,33.7456,-117.8678,21.05,83,20,3.09,US,2024-06-10
118,yellowknife,62.456,-114.3525,12.29,71,75,2.57,CA,2024-06-10
119,laurel bay,32.4502,-80.7848,23.84,94,40,2.06,US,2024-06-10
120,pacific grove,36.6177,-121.9166,14.12,90,100,2.06,US,2024-06-10
121,wuhai,39.6647,106.8122,33.6,12,45,7.72,CN,2024-06-10
122,alice springs,-23.7,133.8833,24.75,22,0,1.54,AU,2024-06-10
123,la passe,45.5549,-0.8967,14.13,91,100,3.33,FR,2024-06-10
124,stanley,54.868,-1.6985,7.38,86,20,3.09,GB,2024-06-10
125,talnakh,69.4865,88.3972,15.11,57,100,4.81,RU,2024-06-10
126,silver city,32.7701,-108.2803,20.98,35,0,3.09,US,2024-06-10
127,kragujevac,44.0167,20.9167,15.16,63,44,1.35,RS,2024-06-10
128,enewetak,11.3474,162.3373,28.24,83,100,8.73,MH,2024-06-10
129,saipan,15.1355,145.701,28.39,89,75,4.12,MP,2024-06-10
130,san jose de jachal,-30.2406,-68.7469,13.1,36,31,2.28,AR,2024-06-10
131,isafjordur,66.0755,-23.124,4.82,72,25,0.56,IS,2024-06-10
132,berdigestyakh,62.0989,126.6992,25.33,26,100,1.0,RU,2024-06-10
133,fouesnant,47.8919,-4.0148,9.12,81,0,1.54,FR,2024-06-10
134,olonkinbyen,70.9221,-8.7187,-1.48,84,100,4.85,SJ,2024-06-10
135,nanao,37.05,136.9667,32.4,46,6,4.48,JP,2024-06-10
136,howrah,22.5892,88.3103,34.0,75,20,4.12,IN,2024-06-10
137,mount pearl,47.5166,-52.7813,11.19,96,20,8.23,CA,2024-06-10
138,rokytne,51.2796,27.214,18.35,86,51,1.93,UA,2024-06-10
139,nizhnyaya poyma,56.1622,97.1933,18.58,60,85,1.39,RU,2024-06-10
140,acapulco de juarez,16.8634,-99.8901,26.9,83,75,2.06,MX,2024-06-10
141,kavaratti,10.5669,72.642,28.75,83,99,7.33,IN,2024-06-10
142,susuman,62.7833,148.1667,13.32,35,86,0.45,RU,2024-06-10
143,minas de marcona,-15.2119,-75.1103,11.47,86,55,3.56,PE,2024-06-10
144,hadibu,12.65,54.0333,29.24,71,58,9.59,YE,2024-06-10
145,ilulissat,69.2167,-51.1,3.01,75,100,2.57,GL,2024-06-10
146,yuzhno-kurilsk,44.0306,145.8556,17.43,77,80,1.92,RU,2024-06-10
147,gebeit,21.0667,36.3167,31.09,18,36,2.16,SD,2024-06-10
148,amasra,41.7463,32.3863,17.03,59,12,1.72,TR,2024-06-10
149,coronel suarez,-37.4547,-61.9334,9.72,65,90,2.61,AR,2024-06-10
150,dhuusamarreeb,5.535,46.3861,25.89,65,91,10.17,SO,2024-06-10
151,lerwick,60.1545,-1.1494,8.0,75,82,8.71,GB,2024-06-10
152,palmer,42.1584,-72.3287,15.23,70,18,1.28,US,2024-06-10
153,t'aebaek,37.1759,128.9889,28.81,36,3,3.52,KR,2024-06-10
154,beyneu,45.3167,55.2,29.78,35,100,7.47,KZ,2024-06-10
155,namsos,64.4662,11.4957,10.03,87,75,2.57,NO,2024-06-10
156,punta del este,-34.9667,-54.95,10.49,94,100,1.54,UY,2024-06-10
157,hamilton,39.1834,-84.5333,13.32,88,0,0.45,US,2024-06-10
158,bayburt,40.2589,40.2278,15.02,66,2,1.17,TR,2024-06-10
159,nikolayevsk-on-amure,53.1406,140.73,6.79,98,100,1.79,RU,2024-06-10
160,terter,40.345,46.9289,23.49,61,28,2.9,AZ,2024-06-10
161,tinajo,29.0788,-13.7081,20.49,73,75,6.69,ES,2024-06-10
162,chonchi,-42.6128,-73.8092,10.62,93,100,3.56,CL,2024-06-10
163,bonab,37.3404,46.0561,19.25,52,75,2.06,IR,2024-06-10
164,al bawiti,28.3492,28.8659,26.77,28,0,1.76,EG,2024-06-10
165,campbell river,50.0163,-125.2446,15.74,100,75,1.54,CA,2024-06-10
166,ust-nera,64.5667,143.2,15.93,42,100,1.65,RU,2024-06-10
167,saint-joseph,-21.3667,55.6167,21.72,77,24,6.4,RE,2024-06-10
168,sibut,5.718,19.0739,22.49,82,100,0.93,CF,2024-06-10
169,gorontalo,0.5412,123.0595,29.76,73,100,2.39,ID,2024-06-10
170,kapit,2.0167,112.9333,31.59,64,99,0.76,MY,2024-06-10
171,bopolu,7.0667,-10.4875,23.0,99,98,0.28,LR,2024-06-10
172,fu'an,27.0892,119.6453,26.63,94,100,0.54,CN,2024-06-10
173,tateyama,34.9833,139.8667,23.29,74,55,4.54,JP,2024-06-10
174,calingasta,-31.3308,-69.4078,9.11,55,100,0.83,AR,2024-06-10
175,mount isa,-20.7333,139.5,28.87,17,14,3.09,AU,2024-06-10
176,malpica,43.3228,-8.8105,14.09,65,64,2.54,ES,2024-06-10
177,rengasdengklok,-6.1592,107.2981,32.07,59,28,4.5,ID,2024-06-10
178,utrik,11.2278,169.8474,28.27,78,2,8.39,MH,2024-06-10
179,qamdo,31.1667,97.2333,18.02,36,19,1.82,CN,2024-06-10
180,lata,40.1629,-8.3327,13.93,93,0,0.83,PT,2024-06-10
181,kapuskasing,49.4169,-82.4331,6.0,87,0,1.54,CA,2024-06-10
182,foumban,5.7291,10.9001,17.15,92,93,1.17,CM,2024-06-10
183,kyren,51.6828,102.1408,14.41,93,81,0.89,RU,2024-06-10
184,sipalay,9.75,122.5,30.42,69,99,4.11,PH,2024-06-10
185,carnarvon,-24.8667,113.6333,22.9,63,71,2.94,AU,2024-06-10
186,george town,5.4112,100.3354,33.96,62,20,2.57,MY,2024-06-10
187,afaahiti,-17.75,-149.2833,24.93,81,99,8.69,PF,2024-06-10
188,tual,-5.6667,132.75,26.8,81,94,9.13,ID,2024-06-10
189,lappeenranta,61.0587,28.1887,13.78,87,0,4.12,FI,2024-06-10
190,hlybokaye,55.1382,27.6879,14.32,93,100,3.2,BY,2024-06-10
191,nova vicosa,-17.8919,-39.3719,21.96,78,95,1.39,BR,2024-06-10
192,huangmei,30.1924,116.025,30.51,60,100,2.71,CN,2024-06-10
193,nadi,-17.8,177.4167,30.0,45,20,5.66,FJ,2024-06-10
194,krasne,49.9145,24.6134,16.42,94,70,3.38,UA,2024-06-10
195,kurchatov,51.6601,35.6521,23.23,73,80,6.44,RU,2024-06-10
196,dubbo,-32.25,148.6167,17.07,55,100,6.17,AU,2024-06-10
197,usinsk,65.9939,57.5281,6.71,84,100,4.92,RU,2024-06-10
198,arenapolis,-14.4503,-56.8461,19.69,62,1,1.4,BR,2024-06-10
199,westport,41.1415,-73.3579,18.09,77,0,1.34,US,2024-06-10
200,aasiaat,68.7098,-52.8699,0.45,79,100,3.53,GL,2024-06-10
201,trashigang,27.3331,91.5542,26.63,62,57,3.24,BT,2024-06-10
202,kudat,6.8837,116.8477,31.96,66,20,2.57,MY,2024-06-10
203,viedma,-40.8135,-62.9967,11.67,58,100,4.3,AR,2024-06-10
204,sukabumi,-6.9181,106.9267,29.61,75,62,0.69,ID,2024-06-10
205,nehe,48.4833,124.8333,20.47,69,100,2.76,CN,2024-06-10
206,al bardiyah,31.7561,25.0865,24.2,62,0,3.41,LY,2024-06-10
207,codrington,-38.2667,141.9667,14.52,65,83,10.55,AU,2024-06-10
208,saldanha,-33.0117,17.9442,18.97,44,100,10.94,ZA,2024-06-10
209,tsiombe,-25.3,45.4833,19.03,70,87,6.1,MG,2024-06-10
210,colonia,50.9333,6.95,10.88,84,40,4.12,DE,2024-06-10
211,russkaya polyana,49.417,31.9201,19.22,89,61,6.47,UA,2024-06-10
212,bloomfield,40.8068,-74.1854,19.83,70,0,4.12,US,2024-06-10
213,fortuna,40.5982,-124.1573,12.19,93,0,2.57,US,2024-06-10
214,iskateley,67.6803,53.1512,7.23,77,100,5.36,RU,2024-06-10
215,farah,32.5,62.5,33.6,10,0,3.64,AF,2024-06-10
216,cabo san lucas,22.8909,-109.9124,27.56,67,0,5.24,MX,2024-06-10
217,garagoa,5.0824,-73.3633,16.79,99,100,0.15,CO,2024-06-10
218,laktasi,44.9081,17.3008,17.92,100,40,1.03,BA,2024-06-10
219,kattivakkam,13.2167,80.3167,33.87,66,98,6.41,IN,2024-06-10
220,anadyr,64.75,177.4833,9.28,61,0,6.0,RU,2024-06-10
221,kismayo,-0.3582,42.5454,26.89,74,53,8.01,SO,2024-06-10
222,boguchany,58.3814,97.4531,22.9,43,22,1.49,RU,2024-06-10
223,sebeta,8.9167,38.6167,15.02,66,69,1.01,ET,2024-06-10
224,fisterra,42.9049,-9.2629,14.3,71,0,7.39,ES,2024-06-10
225,takoradi,4.8845,-1.7554,25.4,87,98,5.24,GH,2024-06-10
226,kavieng,-2.5744,150.7967,29.78,71,99,3.64,PG,2024-06-10
227,tanhacu,-14.0214,-41.2481,18.06,94,15,1.3,BR,2024-06-10
228,bonthe,7.5264,-12.505,25.53,88,98,1.69,SL,2024-06-10
229,villanueva,15.3167,-88.0,26.55,83,40,1.54,HN,2024-06-10
230,happy valley-goose bay,53.3168,-60.3315,12.17,76,75,5.14,CA,2024-06-10
231,krasnyy chikoy,50.3643,108.7512,18.59,73,92,3.07,RU,2024-06-10
232,medicine hat,50.0501,-110.6683,18.25,48,75,2.57,CA,2024-06-10
233,lompoc,34.6391,-120.4579,14.45,88,100,3.09,US,2024-06-10
234,katsuura,35.1333,140.3,23.22,71,54,4.4,JP,2024-06-10
235,tieli,46.95,128.05,23.37,66,98,1.72,CN,2024-06-10
236,nguigmi,14.2495,13.1092,28.34,53,79,4.9,NE,2024-06-10
237,vernon,50.2581,-119.2691,21.74,37,69,0.51,CA,2024-06-10
238,victoriaville,46.0501,-71.9658,13.6,89,100,0.89,CA,2024-06-10
239,akureyri,65.6835,-18.0878,3.96,93,100,2.06,IS,2024-06-10
240,nieuw amsterdam,5.8833,-55.0833,26.09,88,92,2.46,SR,2024-06-10
241,ljungby,56.8332,13.9408,11.45,76,100,1.57,SE,2024-06-10
242,vadso,70.0744,29.7487,6.09,87,100,3.09,NO,2024-06-10
243,kone,-21.0595,164.8658,22.78,78,85,2.52,NC,2024-06-10
244,nelidovo,56.2211,32.7774,15.31,99,100,1.88,RU,2024-06-10
245,kalmunai,7.4167,81.8167,31.57,58,98,0.79,LK,2024-06-10
246,konarka,19.9,86.1167,33.22,66,67,7.27,IN,2024-06-10
247,ouricuri,-7.8825,-40.0817,19.74,92,11,2.34,BR,2024-06-10
248,gambiran satu,-8.3939,114.1464,26.28,87,99,0.56,ID,2024-06-10
249,dailekh,28.8333,81.6667,36.98,10,76,3.05,NP,2024-06-10
250,dicle,38.3751,40.0722,21.42,53,0,3.21,TR,2024-06-10
251,at taj,24.2049,23.2857,27.63,17,0,3.3,LY,2024-06-10
252,tura,25.5198,90.2201,31.05,70,20,3.31,IN,2024-06-10
253,shache,38.4167,77.2406,31.16,18,35,2.85,CN,2024-06-10
254,altay,47.8667,88.1167,27.29,32,60,4.91,CN,2024-06-10
255,mazatan,14.8667,-92.45,24.62,94,100,4.09,MX,2024-06-10
256,barah,13.7,30.3667,30.31,49,87,3.3,SD,2024-06-10
257,south hedland,-20.4089,118.5983,27.96,26,2,5.66,AU,2024-06-10
258,puning,23.3107,116.1687,32.55,63,67,5.54,CN,2024-06-10
259,charo,19.75,-101.05,19.91,55,71,0.74,MX,2024-06-10
260,constitucion,-35.3333,-72.4167,12.95,93,100,8.81,CL,2024-06-10
261,alofi,-19.0595,-169.9187,24.94,69,20,4.12,NU,2024-06-10
262,pelabuhanratu,-6.9875,106.5514,28.95,81,34,2.26,ID,2024-06-10
263,reggane,26.7158,0.1714,33.19,15,0,6.64,DZ,2024-06-10
264,luang prabang,19.8856,102.1347,34.26,52,95,1.03,LA,2024-06-10
265,ribeira grande,38.5167,-28.7,18.21,84,83,3.13,PT,2024-06-10
266,muborak,39.2553,65.1528,37.87,12,0,4.23,UZ,2024-06-10
267,lyubinskiy,55.1542,72.6925,16.82,94,100,6.91,RU,2024-06-10
268,margarita belen,-27.2616,-58.9722,22.79,73,0,2.15,AR,2024-06-10
269,palikir - national government center,6.9248,158.1611,31.47,74,100,4.63,FM,2024-06-10
270,chibougamau,49.9168,-74.3659,10.79,87,100,2.57,CA,2024-06-10
271,salalah,17.0151,54.0924,31.05,79,40,1.54,OM,2024-06-10
272,tazovsky,67.4667,78.7,16.74,57,83,5.95,RU,2024-06-10
273,faya-largeau,17.9257,19.1043,30.64,47,72,3.04,TD,2024-06-10
274,constantia,44.1833,28.65,23.38,77,64,5.51,RO,2024-06-10
275,midvagur,62.0511,-7.1939,4.46,87,100,5.66,FO,2024-06-10
276,el calafate,-50.3408,-72.2768,0.55,98,100,0.77,AR,2024-06-10
277,terrace,54.5163,-128.6035,12.95,76,100,3.6,CA,2024-06-10
278,sinabang,2.4803,96.3801,28.78,76,96,0.57,ID,2024-06-10
279,ambon,-3.6954,128.1814,27.71,95,40,2.57,ID,2024-06-10
280,bredasdorp,-34.5322,20.0403,14.71,47,100,3.29,ZA,2024-06-10
281,doffing,26.2745,-98.3858,29.75,84,0,3.09,US,2024-06-10
282,batang berjuntai,3.3833,101.4167,34.03,60,50,1.92,MY,2024-06-10
283,aral,40.5156,81.2636,32.73,16,3,3.38,CN,2024-06-10
284,salym,60.0625,71.4789,16.17,67,100,2.55,RU,2024-06-10
285,canto do buriti,-8.11,-42.9444,20.61,63,12,1.71,BR,2024-06-10
286,kununurra,-15.7667,128.7333,29.99,28,53,3.6,AU,2024-06-10
287,hizan,38.2257,42.4278,19.15,55,6,2.33,TR,2024-06-10
288,miquelon,47.0975,-56.3814,7.0,98,40,6.92,PM,2024-06-10
289,amphoe sikhiu,14.8994,101.7083,30.35,65,100,6.81,TH,2024-06-10
290,bela,25.9333,81.9833,44.2,11,42,4.41,IN,2024-06-10
291,el naranjo,21.4667,-98.6,25.91,85,5,0.81,MX,2024-06-10
292,mkushi,-13.6202,29.3939,9.9,89,7,4.59,ZM,2024-06-10
293,san antonio de pale,-1.4014,5.6325,25.13,81,100,2.78,GQ,2024-06-10
294,arraial do cabo,-22.9661,-42.0278,22.24,74,7,1.91,BR,2024-06-10
295,edd,13.9297,41.6925,33.84,47,15,4.23,ER,2024-06-10
296,sydney,-33.8679,151.2073,17.95,58,0,4.63,AU,2024-06-10
297,lethem,3.3803,-59.7968,24.07,91,100,2.4,GY,2024-06-10
298,san andres,12.5847,-81.7006,29.01,84,20,2.06,CO,2024-06-10
299,hilo,19.7297,-155.09,24.85,89,100,4.12,US,2024-06-10
300,kapa'a,22.0752,-159.319,29.99,79,40,6.69,US,2024-06-10
301,nova sintra,14.8667,-24.7167,23.93,79,5,8.86,CV,2024-06-10
302,yeysk,46.6989,38.2792,24.64,61,15,0.4,RU,2024-06-10
303,tangalle,6.024,80.7911,31.09,70,68,7.32,LK,2024-06-10
304,sao vicente,-23.9631,-46.3919,24.1,26,47,2.75,BR,2024-06-10
305,labrador city,52.9463,-66.9114,10.1,69,100,4.63,CA,2024-06-10
306,jinjing,24.575,118.5972,33.01,87,44,7.83,CN,2024-06-10
307,revda,56.801,59.9303,20.31,49,2,2.96,RU,2024-06-10
308,canarana,-11.6847,-41.7689,19.39,84,65,4.35,BR,2024-06-10
309,kidal,18.4411,1.4078,29.83,38,0,1.17,ML,2024-06-10
310,karyes,37.3,22.5,14.81,23,4,1.76,GR,2024-06-10
311,kingaroy,-26.5333,151.8333,19.24,42,0,2.27,AU,2024-06-10
312,fort knox,37.8911,-85.9636,13.93,84,0,2.57,US,2024-06-10
313,esquel,-42.9,-71.3167,4.66,96,100,2.0,AR,2024-06-10
314,port isabel,26.0734,-97.2086,29.45,82,20,3.6,US,2024-06-10
315,hastings,50.8552,0.5729,9.88,85,24,4.78,GB,2024-06-10
316,papao,-17.75,-149.55,25.82,83,88,9.67,PF,2024-06-10
317,yaizu,34.8667,138.3333,27.26,78,75,4.63,JP,2024-06-10
318,puerto santa,-8.9906,-78.6456,17.2,91,72,3.68,PE,2024-06-10
319,san patricio,28.017,-97.5169,29.38,77,1,2.64,US,2024-06-10
320,holbrook,40.8123,-73.0784,18.02,77,75,2.06,US,2024-06-10
321,brookings,44.3114,-96.7984,21.21,52,100,5.66,US,2024-06-10
322,charters towers,-20.1,146.2667,26.3,20,7,2.64,AU,2024-06-10
323,macon,39.8667,-88.9668,15.03,63,0,0.0,US,2024-06-10
324,veraval,20.9,70.3667,30.96,66,79,5.86,IN,2024-06-10
325,nemuro,43.3236,145.575,12.39,96,89,1.32,JP,2024-06-10
326,flying fish cove,-10.4217,105.6791,27.82,83,100,6.17,CX,2024-06-10
327,pariaman,-0.619,100.12,31.03,68,83,2.87,ID,2024-06-10
328,boa vista,2.8197,-60.6733,24.99,94,75,1.03,BR,2024-06-10
329,budesti,44.2347,26.4658,25.34,71,55,3.07,RO,2024-06-10
330,luderitz,-26.6481,15.1594,15.69,69,61,3.27,NA,2024-06-10
331,kodiak,57.79,-152.4072,6.73,93,100,5.14,US,2024-06-10
332,vila velha,-20.3297,-40.2925,17.97,94,0,1.54,BR,2024-06-10
333,saint-paul,-21.0096,55.2707,22.57,68,7,0.97,RE,2024-06-10
334,primorsk,46.7348,36.3443,25.24,62,3,2.64,UA,2024-06-10
335,banda aceh,5.5577,95.3222,30.72,67,99,6.27,ID,2024-06-10
336,awjilah,29.1081,21.2869,29.12,13,0,2.69,LY,2024-06-10
337,dazhong,33.1997,120.4578,30.47,44,99,6.36,CN,2024-06-10
338,baruun-urt,46.6806,113.2792,23.7,38,77,2.01,MN,2024-06-10
339,huambo,-12.7761,15.7392,8.4,62,29,0.58,AO,2024-06-10
340,floro,61.5996,5.0328,10.04,76,40,8.23,NO,2024-06-10
341,buka,40.8108,69.1986,33.7,22,18,3.73,UZ,2024-06-10
342,bulayevo,54.9056,70.4439,15.27,87,100,6.55,KZ,2024-06-10
343,abington,42.1048,-70.9453,16.65,85,5,2.47,US,2024-06-10
344,nizhniy kuranakh,58.8353,125.4869,23.02,31,37,3.96,RU,2024-06-10
345,antofagasta,-23.65,-70.4,15.6,86,15,2.53,CL,2024-06-10
346,mahajanga,-15.7167,46.3167,20.01,73,0,2.06,MG,2024-06-10
347,severo-yeniseyskiy,60.3725,93.0408,20.69,43,99,2.71,RU,2024-06-10
348,novaya igirma,57.1334,103.9112,19.82,57,99,1.01,RU,2024-06-10
349,igrim,63.1906,64.4162,18.58,39,18,2.85,RU,2024-06-10
350,antsiranana,-12.2787,49.2917,23.42,68,75,0.0,MG,2024-06-10
351,kloulklubed,7.0419,134.2556,29.28,67,100,2.72,PW,2024-06-10
352,kalevala,65.2,31.1667,11.16,71,48,2.68,RU,2024-06-10
353,shimoda,34.6667,138.95,27.28,72,100,3.7,JP,2024-06-10
354,talodi,10.6325,30.3797,27.92,65,99,1.94,SD,2024-06-10
355,manismata,-2.4667,111.0333,31.64,67,50,1.26,ID,2024-06-10
356,loukhi,66.0764,33.0381,13.81,58,53,1.8,RU,2024-06-10
357,kristiansund,63.1115,7.732,10.07,83,75,4.12,NO,2024-06-10
358,kalat,29.0225,66.5916,26.06,8,0,1.17,PK,2024-06-10
359,al hazm,16.1641,44.7769,31.78,20,7,0.78,YE,2024-06-10
360,barcelos,41.5388,-8.6151,18.25,75,0,1.73,PT,2024-06-10
361,prince george,53.9166,-122.753,16.69,54,20,1.54,CA,2024-06-10
362,woolgoolga,-30.1106,153.2007,19.93,59,12,3.21,AU,2024-06-10
363,ciudad constitucion,25.0369,-111.6644,19.68,66,0,6.1,MX,2024-06-10
364,estevan,49.1334,-102.9842,14.19,82,75,8.75,CA,2024-06-10
365,luanda,-8.8368,13.2343,21.15,92,16,3.59,AO,2024-06-10
366,rockport,28.0206,-97.0544,29.47,83,0,5.14,US,2024-06-10
367,cidreira,-30.1811,-50.2056,16.26,91,0,1.01,BR,2024-06-10
368,rondonopolis,-16.4708,-54.6356,19.25,54,0,1.42,BR,2024-06-10
369,chebba,35.2372,11.115,22.17,76,75,5.94,TN,2024-06-10
370,newman,37.3138,-121.0208,29.13,64,0,0.45,US,2024-06-10
371,kayangel,8.0823,134.7173,29.61,71,100,3.65,PW,2024-06-10
372,clinton,42.587,-82.9199,13.83,79,0,2.06,US,2024-06-10
373,nishinoomote,30.7333,131.0,23.31,94,75,4.63,JP,2024-06-10
374,quellon,-43.1167,-73.6167,10.72,88,100,8.8,CL,2024-06-10
375,whangarei,-35.7317,174.3239,13.35,77,85,2.28,NZ,2024-06-10
376,fauske,67.2588,15.3918,10.43,94,100,1.3,NO,2024-06-10
377,buritis,-15.6178,-46.4233,22.73,64,100,0.96,BR,2024-06-10
378,yangju,37.8331,127.0617,33.1,34,62,4.05,KR,2024-06-10
379,birjand,32.8663,59.2211,29.26,11,0,0.0,IR,2024-06-10
380,antonio enes,-16.2325,39.9086,20.99,81,51,5.21,MZ,2024-06-10
381,tromso,69.6496,18.957,14.01,62,0,2.06,NO,2024-06-10
382,coracora,-15.0333,-73.7833,9.32,51,88,1.39,PE,2024-06-10
383,bikenibeu village,1.3673,173.1241,28.98,79,40,2.57,KI,2024-06-10
384,khamis mushait,18.3064,42.7292,24.58,53,0,2.57,SA,2024-06-10
385,dickinson,29.4608,-95.0513,27.81,85,75,2.06,US,2024-06-10
386,dul'durga,50.6761,113.5931,22.57,39,99,2.13,RU,2024-06-10
387,bereznik,62.8551,42.7072,13.26,88,100,0.31,RU,2024-06-10
388,callao,-12.0667,-77.15,17.16,77,0,3.09,PE,2024-06-10
389,balcarce,-37.8462,-58.2552,10.78,99,50,1.34,AR,2024-06-10
390,weno,7.4515,151.8468,30.97,84,75,5.14,FM,2024-06-10
391,ghanzi,-21.5667,21.7833,5.76,69,5,4.61,BW,2024-06-10
392,sao tome,0.3365,6.7273,24.8,82,85,3.27,ST,2024-06-10
393,dolinsk,47.35,142.8,18.18,85,74,2.85,RU,2024-06-10
394,myrina,39.8797,25.0742,21.58,68,0,0.0,GR,2024-06-10
395,kievka,50.2619,71.5514,19.8,65,99,7.72,KZ,2024-06-10
396,east london,-33.0153,27.9116,15.52,55,0,5.66,ZA,2024-06-10
397,rabaul,-4.1967,152.1721,29.15,76,93,3.31,PG,2024-06-10
398,andkhoy,36.9529,65.1238,38.12,11,0,3.22,AF,2024-06-10
399,abepura,-2.6333,140.5833,31.45,66,20,2.06,ID,2024-06-10
400,kongoussi,13.3258,-1.5347,30.22,47,86,4.31,BF,2024-06-10
401,thunder bay,48.4001,-89.3168,8.99,87,0,1.03,CA,2024-06-10
402,manfalut,27.3104,30.97,25.14,37,0,3.25,EG,2024-06-10
403,sainte-adresse,49.5089,0.0845,13.24,88,100,3.09,FR,2024-06-10
404,xiaoshi,41.2971,124.1209,29.45,45,100,4.61,CN,2024-06-10
405,chernyshevskiy,63.0128,112.4714,25.05,25,98,1.89,RU,2024-06-10
406,kerikeri,-35.2268,173.9474,16.06,77,74,2.24,NZ,2024-06-10
407,ranikhet,29.65,79.4167,30.82,11,98,2.78,IN,2024-06-10
408,xinyi,22.373,110.9475,29.55,77,97,3.64,CN,2024-06-10
409,east ballina,-28.8667,153.5833,22.11,50,0,1.2,AU,2024-06-10
410,dauphin,51.1494,-100.0502,13.08,94,100,7.2,CA,2024-06-10
411,west bay,19.3667,-81.4167,28.93,86,100,10.3,KY,2024-06-10
412,remire-montjoly,4.9167,-52.2667,25.02,94,100,1.03,GF,2024-06-10
413,tshabong,-26.05,22.45,7.21,52,59,5.8,BW,2024-06-10
414,pitimbu,-7.4706,-34.8086,22.33,83,16,6.03,BR,2024-06-10
415,puerto baquerizo moreno,-0.9,-89.6,21.8,89,71,3.13,EC,2024-06-10
416,jingdezhen,29.2947,117.2079,27.15,88,99,2.81,CN,2024-06-10
417,dambatta,12.433,8.5154,28.06,62,100,5.83,NG,2024-06-10
418,aden,12.7794,45.0367,31.38,74,19,3.94,YE,2024-06-10
419,anton lizardo,19.05,-95.9833,29.56,87,99,1.81,MX,2024-06-10
420,saint-philippe,-21.3585,55.7679,22.28,82,43,6.35,RE,2024-06-10
421,klaksvik,62.2266,-6.589,4.51,80,100,10.51,FO,2024-06-10
422,nelson bay,-32.7167,152.15,17.83,63,87,0.45,AU,2024-06-10
423,paracuru,-3.41,-39.0306,26.17,91,6,4.93,BR,2024-06-10
424,gillette,44.2911,-105.5022,16.17,52,0,3.6,US,2024-06-10
425,totness,5.8833,-56.3167,25.9,87,90,3.09,SR,2024-06-10
426,tongouson,5.0214,120.1328,29.15,70,85,0.47,PH,2024-06-10
427,new norfolk,-42.7826,147.0587,12.18,72,98,6.44,AU,2024-06-10
428,miri,4.4148,114.0089,34.08,59,20,0.51,MY,2024-06-10
429,novyy urgal,51.0736,132.5642,17.76,72,96,1.55,RU,2024-06-10
430,phalaborwa,-23.943,31.1411,13.6,82,4,1.66,ZA,2024-06-10
431,sooke,48.3746,-123.7276,14.69,82,90,9.26,CA,2024-06-10
432,yeppoon,-23.1333,150.7333,23.88,60,0,2.94,AU,2024-06-10
433,yusufeli,40.8204,41.5443,21.05,70,18,0.75,TR,2024-06-10
434,greensburg,40.3015,-79.5389,14.21,79,100,2.06,US,2024-06-10
435,victorica,-36.2151,-65.4359,12.11,45,100,7.76,AR,2024-06-10
436,tacna,-18.0056,-70.2483,14.5,88,100,2.06,PE,2024-06-10
437,cururupu,-1.8283,-44.8683,23.0,100,73,0.4,BR,2024-06-10
438,boende,-0.2167,20.8667,21.75,73,67,0.74,CD,2024-06-10
439,kiskunmajsa,46.4903,19.74,18.28,76,60,4.09,HU,2024-06-10
440,rawlins,41.7911,-107.2387,17.94,39,0,3.09,US,2024-06-10
441,al jawf,29.5,38.75,26.27,34,0,4.56,SA,2024-06-10
442,mikhaylovskoye,51.8239,79.7172,24.11,63,20,6.47,RU,2024-06-10
443,long beach,33.767,-118.1892,19.53,89,0,4.12,US,2024-06-10
444,la foa,-21.7108,165.8276,21.78,84,91,4.74,NC,2024-06-10
445,daru,-9.0763,143.2092,26.43,86,99,8.61,PG,2024-06-10
446,norilsk,69.3535,88.2027,15.23,50,100,4.05,RU,2024-06-10
447,sisimiut,66.9395,-53.6735,4.68,88,100,2.47,GL,2024-06-10
448,broome,42.2506,-75.833,13.11,89,100,2.57,US,2024-06-10
449,kenai,60.5544,-151.2583,13.05,73,100,6.17,US,2024-06-10
450,lebanon,36.2081,-86.2911,18.93,82,0,0.0,US,2024-06-10
451,chuguyevka,44.1653,133.8633,25.68,51,91,2.84,RU,2024-06-10
452,new ulm,44.3125,-94.4605,19.2,37,0,3.09,US,2024-06-10
453,arar,30.9753,41.0381,29.01,24,0,4.63,SA,2024-06-10
454,harstad,68.799,16.5293,11.56,95,100,0.45,NO,2024-06-10
455,udachny,66.4167,112.4,20.8,36,100,2.31,RU,2024-06-10
456,queenstown,-31.8976,26.8753,5.87,55,4,2.96,ZA,2024-06-10
457,kashgar,39.4547,75.9797,28.56,16,0,5.0,CN,2024-06-10
458,chos malal,-37.3781,-70.2709,7.4,84,100,3.14,AR,2024-06-10
459,flin flon,54.7682,-101.865,10.38,99,100,1.02,CA,2024-06-10
460,beipiao,41.7919,120.7792,35.92,21,79,5.39,CN,2024-06-10
461,bryne,58.7354,5.6477,10.87,93,20,4.12,NO,2024-06-10
462,baiyin,36.5583,104.2081,28.32,14,31,2.48,CN,2024-06-10
463,kuching,1.55,110.3333,33.34,74,40,1.54,MY,2024-06-10
464,san rafael,-34.6177,-68.3301,11.11,50,54,2.22,AR,2024-06-10
465,pandan,14.0453,124.1694,30.99,68,84,2.35,PH,2024-06-10
466,nicoya,10.1483,-85.452,24.25,99,100,0.8,CR,2024-06-10
467,akhtyrskiy,44.8546,38.3031,21.05,55,7,2.37,RU,2024-06-10
468,brisas de zicatela,15.8369,-97.0419,27.96,78,100,3.55,MX,2024-06-10
469,namibe,-15.1961,12.1522,19.65,77,0,4.11,AO,2024-06-10
470,chegdomyn,51.1167,133.0167,16.04,86,91,0.82,RU,2024-06-10
471,asaita,11.5636,41.4394,34.51,26,68,1.26,ET,2024-06-10
472,hasaki,35.7333,140.8333,30.16,69,47,4.68,JP,2024-06-10
473,oulad teima,30.3947,-9.209,16.6,92,86,2.55,MA,2024-06-10
474,khulm,36.6974,67.6983,35.99,13,0,2.16,AF,2024-06-10
475,crane,31.3974,-102.3501,19.94,68,4,8.21,US,2024-06-10
476,boyabat,41.4689,34.7667,21.07,61,2,0.98,TR,2024-06-10
477,yonan-up,37.9089,126.1611,23.24,71,61,5.37,KP,2024-06-10
478,christchurch,-43.5333,172.6333,8.84,66,77,2.57,NZ,2024-06-10
479,valley city,46.9233,-98.0032,17.29,88,100,0.0,US,2024-06-10
480,robore,-18.3333,-59.75,21.37,56,43,1.49,BO,2024-06-10
481,aykhal,66.0,111.5,21.13,34,100,3.66,RU,2024-06-10
482,ceeldheer,3.8488,47.1806,26.7,73,91,9.11,SO,2024-06-10
483,gadzhiyevo,69.2551,33.3362,11.6,75,100,3.23,RU,2024-06-10
484,labuan,5.2767,115.2417,31.2,66,20,1.54,MY,2024-06-10
485,noumea,-22.2763,166.4572,20.99,92,89,6.71,NC,2024-06-10
486,mount zion,39.7714,-88.8742,14.96,63,0,0.0,US,2024-06-10
487,pangody,65.85,74.4859,14.93,58,88,5.91,RU,2024-06-10
488,meadow lake,34.8014,-106.5436,20.77,71,97,2.51,US,2024-06-10
489,collie,-33.3667,116.15,16.6,56,100,2.12,AU,2024-06-10
490,mazamari,-11.3258,-74.5308,22.3,74,100,0.88,PE,2024-06-10
491,talara,-4.5772,-81.2719,18.8,81,62,5.86,PE,2024-06-10
492,tilcara,-23.5776,-65.3509,8.02,6,55,5.72,AR,2024-06-10
493,tralee,52.2704,-9.7026,5.68,91,6,1.52,IE,2024-06-10
494,chadan,51.2833,91.5833,14.12,89,100,1.57,RU,2024-06-10
495,santa elena de uairen,4.6167,-61.1333,18.99,92,87,1.29,VE,2024-06-10
496,portland,45.5234,-122.6762,20.49,59,3,0.45,US,2024-06-10
497,dryden,49.7833,-92.7503,17.16,42,75,3.09,CA,2024-06-10
498,souillac,-20.5167,57.5167,22.42,82,59,7.35,MU,2024-06-10
499,vanino,49.0869,140.2543,13.29,80,100,3.42,RU,2024-06-10
500,ambagarh chauki,20.7833,80.7167,38.03,32,3,2.95,IN,2024-06-10
501,lamu,-2.2717,40.902,26.31,76,2,8.94,KE,2024-06-10
502,hatillo,18.4863,-66.8254,27.96,80,99,3.99,PR,2024-06-10
503,lushun,38.8,121.2667,28.12,68,82,3.7,CN,2024-06-10
504,whitby,54.4877,-0.615,8.51,89,100,3.13,GB,2024-06-10
505,sikandra,26.3667,79.65,43.55,14,20,4.44,IN,2024-06-10
506,muli,2.9167,73.5667,28.4,77,71,5.71,MV,2024-06-10
507,campinas,-22.9056,-47.0608,17.89,77,0,5.14,BR,2024-06-10
508,hun,29.1268,15.9477,30.6,12,0,2.86,LY,2024-06-10
509,port saint john's,-31.6229,29.5448,14.72,58,3,2.95,ZA,2024-06-10
510,merke,42.8728,73.1786,29.44,32,28,3.38,KZ,2024-06-10
511,cedeira,43.6797,-8.0209,14.9,78,77,2.33,ES,2024-06-10
512,bakanas,44.8081,76.2772,32.85,22,65,4.42,KZ,2024-06-10
513,camargo,27.6667,-105.1667,28.13,32,1,5.21,MX,2024-06-10
514,chinchilla,-26.75,150.6333,19.11,33,0,2.09,AU,2024-06-10
515,selfoss,63.9331,-20.9971,7.47,78,32,1.3,IS,2024-06-10
516,tonghae,37.5439,129.1069,28.87,50,5,2.15,KR,2024-06-10
517,maiyama,12.0841,4.3677,28.0,68,88,3.97,NG,2024-06-10
518,kem',64.9555,34.5793,13.41,62,53,4.72,RU,2024-06-10
519,bubaque,11.2833,-15.8333,26.48,83,82,3.77,GW,2024-06-10
520,rumburk,50.9515,14.557,12.3,75,41,6.36,CZ,2024-06-10
521,tamanrasset,22.785,5.5228,24.95,6,0,3.6,DZ,2024-06-10
522,azemmour,33.2895,-8.3425,18.75,78,92,3.6,MA,2024-06-10
523,biltine,14.5333,20.9167,28.76,45,100,2.61,TD,2024-06-10
524,macau,22.2006,113.5461,31.89,89,40,4.63,MO,2024-06-10
525,coquimbo,-29.9533,-71.3436,12.85,100,100,2.06,CL,2024-06-10
526,massawa,15.6097,39.45,32.62,59,89,1.77,ER,2024-06-10
527,shingu,33.7333,135.9833,25.6,67,98,3.86,JP,2024-06-10
528,bangjun,39.9911,117.2628,37.68,20,3,4.11,CN,2024-06-10
529,kharabali,47.4196,47.2568,25.28,50,100,3.07,RU,2024-06-10
530,lodja,-3.4833,23.4333,19.22,64,6,1.03,CD,2024-06-10
531,labytnangi,66.6572,66.4183,8.54,76,81,1.17,RU,2024-06-10
532,dalandzadgad,43.5708,104.425,28.71,16,29,3.56,MN,2024-06-10
533,borgarnes,64.5383,-21.9206,7.03,84,14,1.94,IS,2024-06-10
534,tselinnoye,53.0833,85.6667,22.51,77,100,3.28,RU,2024-06-10
535,sao gabriel da cachoeira,-0.1303,-67.0892,22.64,99,64,0.46,BR,2024-06-10
536,arta,39.1606,20.9853,19.8,44,62,1.38,GR,2024-06-10
537,lycksele,64.5954,18.6735,7.93,93,40,1.54,SE,2024-06-10
538,magadan,59.5667,150.8,14.18,72,100,0.6,RU,2024-06-10
539,burang,30.25,81.1667,10.18,31,59,3.83,CN,2024-06-10
540,tidjikja,18.5564,-11.4271,31.46,23,9,6.28,MR,2024-06-10
541,fort st. john,56.2499,-120.8529,16.94,42,40,7.2,CA,2024-06-10
542,alappuzha,9.49,76.3264,30.0,75,86,2.7,IN,2024-06-10
543,thinadhoo,0.5333,72.9333,28.46,73,95,3.07,MV,2024-06-10
544,petrozavodsk,61.7849,34.3469,13.7,82,0,1.0,RU,2024-06-10
545,taungoo,18.9333,96.4333,27.22,88,100,4.7,MM,2024-06-10
546,elliot lake,46.3834,-82.6331,6.61,66,0,2.35,CA,2024-06-10
547,dongola,19.1667,30.4833,33.26,10,24,4.64,SD,2024-06-10
548,grand-bassam,5.2118,-3.7388,23.98,90,100,3.88,CI,2024-06-10
549,mananara,-16.1667,49.7667,22.01,78,69,3.68,MG,2024-06-10
550,veinticinco de mayo,-35.4323,-60.1727,8.88,83,77,0.89,AR,2024-06-10
551,aparan,40.5932,44.3589,13.28,76,52,2.03,AM,2024-06-10
552,nagqu,31.5,92.0,17.01,25,5,3.5,CN,2024-06-10
553,carutapera,-1.195,-46.02,24.47,94,99,2.27,BR,2024-06-10
554,laguna,38.421,-121.4238,28.16,47,0,4.12,US,2024-06-10
555,chifeng,42.2683,118.9636,32.16,25,13,4.32,CN,2024-06-10
556,ilhabela,-23.7781,-45.3581,22.42,62,28,1.93,BR,2024-06-10
557,jinji,23.2281,110.8261,30.31,79,64,2.19,CN,2024-06-10
558,harper,4.375,-7.7169,25.46,83,100,4.04,LR,2024-06-10
559,kill devil hills,36.0307,-75.676,23.01,65,0,4.63,US,2024-06-10
560,prudentopolis,-25.2131,-50.9778,13.56,98,39,0.47,BR,2024-06-10
561,maitum,6.0392,124.4986,29.54,72,90,2.21,PH,2024-06-10
562,ca mau,9.1769,105.15,35.6,40,92,5.23,VN,2024-06-10
563,suntar,62.1444,117.6319,26.45,26,11,2.32,RU,2024-06-10
564,fortaleza,-3.7227,-38.5247,26.23,89,20,2.57,BR,2024-06-10
565,karratha,-20.7377,116.8463,26.08,32,0,5.91,AU,2024-06-10
566,ilam,26.9167,87.9167,29.3,60,74,2.54,NP,2024-06-10
567,imbituba,-28.24,-48.6703,16.71,97,5,2.45,BR,2024-06-10
568,iaciara,-14.0958,-46.6317,22.86,61,79,1.24,BR,2024-06-10
569,yemva,62.59,50.8594,17.28,71,100,2.44,RU,2024-06-10
570,dong ha,16.8163,107.1003,35.7,45,100,6.24,VN,2024-06-10
571,malampaka,-3.1333,33.5333,19.81,64,81,4.36,TZ,2024-06-10
572,arkhangel'sk,64.5401,40.5433,15.06,77,0,2.0,RU,2024-06-10
573,guerrero negro,27.9769,-114.0611,16.44,87,46,6.9,MX,2024-06-10
574,nantucket,41.2835,-70.0995,16.67,88,0,4.12,US,2024-06-10
